{"version": 0.6, "generator": "Overpass API 0.7.62.5 1bd436f1", "osm3s": {"timestamp_osm_base": "2025-03-11T10:48:00Z", "copyright": "The data included in this document is from www.openstreetmap.org. The data is made available under ODbL."}, "elements": [{"type": "node", "id": 364937089, "lat": 43.6773604, "lon": -79.5059173, "tags": {"addr:city": "York", "addr:housenumber": "257", "addr:street": "Scarlett Road", "amenity": "restaurant", "name": "Jadranka Cafe & Pastries"}}, {"type": "node", "id": 3364856742, "lat": 43.6672507, "lon": -79.4873251, "tags": {"amenity": "restaurant", "cuisine": "vietnamese", "name": "Pho Now"}}, {"type": "node", "id": 3369498221, "lat": 43.6682931, "lon": -79.4872606, "tags": {"amenity": "restaurant", "cuisine": "indian", "name": "Roti Time", "phone": "+1-416-901-8311"}}, {"type": "node", "id": 6170817930, "lat": 43.6777161, "lon": -79.5062353}, {"type": "node", "id": 6170817931, "lat": 43.6777631, "lon": -79.5060193}, {"type": "node", "id": 6170817933, "lat": 43.6777651, "lon": -79.5062563}, {"type": "node", "id": 6170817934, "lat": 43.6778121, "lon": -79.5060393}, {"type": "node", "id": 6348392717, "lat": 43.6836664, "lon": -79.4812692, "tags": {"addr:housenumber": "925", "addr:street": "Weston Road", "amenity": "restaurant", "name": "Id Love Restaurant & Bar"}}, {"type": "node", "id": 6359374082, "lat": 43.6776574, "lon": -79.495818, "tags": {"amenity": "restaurant", "cuisine": "caribbean", "name": "Island Breeze Restaurant"}}, {"type": "node", "id": 6359375686, "lat": 43.677073, "lon": -79.4951483, "tags": {"amenity": "restaurant", "cuisine": "vietnamese", "name": "Royal Noodle Restaurant"}}, {"type": "node", "id": 7403765788, "lat": 43.6671744, "lon": -79.4884652, "tags": {"addr:city": "Toronto", "addr:housenumber": "2583", "addr:postcode": "M6N 4Z5", "addr:street": "St. Clair Avenue West", "addr:unit": "2", "amenity": "restaurant", "brand": "Osmow's", "brand:wikidata": "Q115048716", "cuisine": "mediterranean;shawarma", "name": "Osmow's", "takeaway": "yes"}}, {"type": "node", "id": 7571810327, "lat": 43.6676461, "lon": -79.4884317, "tags": {"amenity": "restaurant", "brand": "Pizza Hut", "brand:wikidata": "Q191615", "brand:wikipedia": "en:Pizza Hut", "cuisine": "pizza", "name": "Pizza Hut"}}, {"type": "node", "id": 11124087123, "lat": 43.6665012, "lon": -79.4978622, "tags": {"amenity": "restaurant", "check_date": "2023-08-17", "name": "Martins Churrasqueira", "opening_hours": "Mo-Sa 11:00-20:00; Su 11:00-16:00", "phone": "+1 6473586969", "wheelchair": "yes"}}, {"type": "way", "id": 659093963, "nodes": [6170817934, 6170817931, 6170817930, 6170817933, 6170817934], "tags": {"addr:city": "York", "addr:housenumber": "267", "addr:street": "Scarlett Road", "amenity": "restaurant", "building": "retail", "name": "New Orleans Seafood & Steakhouse", "opening_hours": "Tu-Sa 17:00-22:00; Su-Mo off", "phone": "+1-416-766-7001", "stars": "9.6", "stars:system": "10 star rating", "website": "http://www.cajuntoronto.com/"}}]}