{"version": 0.6, "generator": "Overpass API 0.7.62.5 1bd436f1", "osm3s": {"timestamp_osm_base": "2025-03-11T12:56:11Z", "copyright": "The data included in this document is from www.openstreetmap.org. The data is made available under ODbL."}, "elements": [{"type": "node", "id": 365652721, "lat": 43.7593157, "lon": -79.5185442}, {"type": "node", "id": 365652724, "lat": 43.759221, "lon": -79.5189662}, {"type": "node", "id": 365652740, "lat": 43.7591733, "lon": -79.5191821}, {"type": "node", "id": 365652745, "lat": 43.7591598, "lon": -79.5192385}, {"type": "node", "id": 365652940, "lat": 43.7587652, "lon": -79.5189527}, {"type": "node", "id": 365652957, "lat": 43.7588428, "lon": -79.5187316}, {"type": "node", "id": 365652960, "lat": 43.7589228, "lon": -79.5183714}, {"type": "node", "id": 4177416983, "lat": 43.7576526, "lon": -79.5188796, "tags": {"brand": "Circle K", "brand:wikidata": "Q3268010", "brand:wikipedia": "en:Circle K", "name": "Circle K", "shop": "convenience"}}, {"type": "node", "id": 6370679351, "lat": 43.759047, "lon": -79.5191895}, {"type": "node", "id": 6370679364, "lat": 43.7587967, "lon": -79.5197215}, {"type": "node", "id": 6370679375, "lat": 43.7587415, "lon": -79.5190573}, {"type": "node", "id": 6370679376, "lat": 43.7588158, "lon": -79.5187186}, {"type": "node", "id": 6370679377, "lat": 43.7587886, "lon": -79.5188369}, {"type": "node", "id": 6370850978, "lat": 43.7587115, "lon": -79.5195799}, {"type": "node", "id": 6371265832, "lat": 43.7692462, "lon": -79.5210057, "tags": {"name": "Super Stop", "shop": "convenience"}}, {"type": "node", "id": 6371265844, "lat": 43.7692767, "lon": -79.5218462, "tags": {"name": "Pacific Fresh Food Mart", "shop": "supermarket"}}, {"type": "node", "id": 11179035842, "lat": 43.758862, "lon": -79.5189928}, {"type": "node", "id": 11179035843, "lat": 43.758887, "lon": -79.51888}, {"type": "node", "id": 11179035848, "lat": 43.7592359, "lon": -79.5191384}, {"type": "node", "id": 11179035849, "lat": 43.7592542, "lon": -79.5190513}, {"type": "node", "id": 11184595402, "lat": 43.7587564, "lon": -79.5195745}, {"type": "node", "id": 11184595403, "lat": 43.7587615, "lon": -79.5196558}, {"type": "node", "id": 11184595404, "lat": 43.7588069, "lon": -79.5196746}, {"type": "node", "id": 11184595405, "lat": 43.7587208, "lon": -79.5197303}, {"type": "node", "id": 11184595407, "lat": 43.7587156, "lon": -79.5196331}, {"type": "way", "id": 680388211, "nodes": [365652745, 6370679351, 6370679375, 365652940, 11179035842, 11179035843, 6370679377, 6370679376, 365652957, 365652960, 365652721, 365652724, 11179035849, 11179035848, 365652740, 365652745], "tags": {"addr:city": "Toronto", "addr:housenumber": "1", "addr:postcode": "M3N 3A1", "addr:province": "Ontario", "addr:street": "York Gate Boulevard", "addr:unit": "D8", "brand": "No Frills", "brand:wikidata": "Q3342407", "brand:wikipedia": "en:No Frills (grocery store)", "level": "0", "name": "No Frills", "opening_hours": "Mo-Fr 8:00-21:00; Sa,Su 8:00-19:00", "shop": "supermarket", "wheelchair": "yes"}}, {"type": "way", "id": 1207040950, "nodes": [11184595404, 11184595403, 11184595402, 6370850978, 11184595407, 11184595405, 6370679364, 11184595404], "tags": {"addr:housenumber": "1", "addr:street": "York Gate Boulevard", "addr:unit": "D2", "cuisine": "dessert", "level": "0", "name": "Ross Convenience", "shop": "convenience"}}]}