{"version": 0.6, "generator": "Overpass API 0.7.62.5 1bd436f1", "osm3s": {"timestamp_osm_base": "2025-03-11T12:25:44Z", "copyright": "The data included in this document is from www.openstreetmap.org. The data is made available under ODbL."}, "elements": [{"type": "node", "id": 383629884, "lat": 43.6827116, "lon": -79.4911262, "tags": {"name": "Daily Mart", "shop": "convenience"}}, {"type": "node", "id": 6170821799, "lat": 43.6911319, "lon": -79.5012419}, {"type": "node", "id": 6170821800, "lat": 43.6911229, "lon": -79.5012392}, {"type": "node", "id": 6170821801, "lat": 43.6911046, "lon": -79.5013551}, {"type": "node", "id": 6170821802, "lat": 43.691101, "lon": -79.501354}, {"type": "node", "id": 6170821803, "lat": 43.6910967, "lon": -79.5013814}, {"type": "node", "id": 6170821804, "lat": 43.6909479, "lon": -79.5013365}, {"type": "node", "id": 6170821805, "lat": 43.6909754, "lon": -79.5011623}, {"type": "node", "id": 6170821806, "lat": 43.6910102, "lon": -79.5011728}, {"type": "node", "id": 6170821807, "lat": 43.6910114, "lon": -79.5011651}, {"type": "node", "id": 6170821808, "lat": 43.6910909, "lon": -79.5011891}, {"type": "node", "id": 6170821809, "lat": 43.6910927, "lon": -79.5011779}, {"type": "node", "id": 6170821810, "lat": 43.6911397, "lon": -79.5011921}, {"type": "node", "id": 6342130666, "lat": 43.6913221, "lon": -79.5006, "tags": {"name": "T&K Variety", "shop": "convenience"}}, {"type": "node", "id": 6342130684, "lat": 43.6901957, "lon": -79.4986534, "tags": {"name": "Fardus Decor & Varieties", "shop": "convenience"}}, {"type": "node", "id": 6342131185, "lat": 43.6903177, "lon": -79.4982498, "tags": {"name": "October Convenience", "shop": "convenience"}}, {"type": "node", "id": 6342148788, "lat": 43.6883182, "lon": -79.4928312, "tags": {"name": "A&M Lifestyle Variety", "shop": "convenience"}}, {"type": "node", "id": 6342175480, "lat": 43.6879534, "lon": -79.4917753, "tags": {"name": "Henry Convenience", "shop": "convenience"}}, {"type": "node", "id": 6342175889, "lat": 43.687464, "lon": -79.4911152, "tags": {"name": "M&M Variety & Grocery", "shop": "convenience"}}, {"type": "node", "id": 6348220117, "lat": 43.6859619, "lon": -79.487223, "tags": {"name": "World Variety", "shop": "convenience"}}, {"type": "way", "id": 659094394, "nodes": [6170821810, 6170821809, 6170821808, 6170821807, 6170821806, 6170821805, 6170821804, 6170821803, 6170821802, 6170821801, 6170821800, 6170821799, 6170821810], "tags": {"brand": "7-Eleven", "brand:wikidata": "Q259340", "brand:wikipedia": "en:7-Eleven", "building": "yes", "name": "7-Eleven", "shop": "convenience", "website": "https://stores.7-eleven.ca/store/24414"}}]}