{"version": 0.6, "generator": "Overpass API 0.7.62.5 1bd436f1", "osm3s": {"timestamp_osm_base": "2025-03-11T10:32:41Z", "copyright": "The data included in this document is from www.openstreetmap.org. The data is made available under ODbL."}, "elements": [{"type": "node", "id": 4364806437, "lat": 43.6747408, "lon": -79.4569171}, {"type": "node", "id": 4364806439, "lat": 43.6746268, "lon": -79.4561001}, {"type": "node", "id": 4364806440, "lat": 43.6746758, "lon": -79.4561211}, {"type": "node", "id": 4364806441, "lat": 43.6746518, "lon": -79.4562301}, {"type": "node", "id": 4364806442, "lat": 43.6746878, "lon": -79.4562451}, {"type": "node", "id": 4364806443, "lat": 43.6746188, "lon": -79.4565521}, {"type": "node", "id": 4364806444, "lat": 43.6746888, "lon": -79.4565821}, {"type": "node", "id": 4364806445, "lat": 43.6746718, "lon": -79.4566571}, {"type": "node", "id": 4364806446, "lat": 43.6747878, "lon": -79.4567061}, {"type": "node", "id": 5163547295, "lat": 43.6744728, "lon": -79.4568031}, {"type": "node", "id": 6208914647, "lat": 43.6746098, "lon": -79.4568611}, {"type": "node", "id": 6208914774, "lat": 43.6745038, "lon": -79.4568171}, {"type": "node", "id": 6208914775, "lat": 43.6746098, "lon": -79.4568621}, {"type": "way", "id": 438819829, "nodes": [4364806446, 4364806445, 4364806444, 4364806443, 4364806442, 4364806441, 4364806440, 4364806439, 5163547295, 6208914774, 6208914775, 6208914647, 4364806437, 4364806446], "tags": {"addr:city": "Toronto", "addr:housenumber": "1625", "addr:postcode": "M6N 1H7", "addr:street": "St. Clair Avenue West", "building": "retail", "check_date": "2023-11-09", "name": "Tavora Foods", "opening_hours": "Mo-Th 08:00-19:30; Fr 08:00-20:00; Sa 08:00-19:00; Su 08:00-16:00", "operator": "Tavora Foods", "phone": "+1-416-656-1592", "shop": "supermarket", "website": "https://www.tavora.ca/"}}]}