{"version": 0.6, "generator": "Overpass API 0.7.62.5 1bd436f1", "osm3s": {"timestamp_osm_base": "2025-03-11T10:46:58Z", "copyright": "The data included in this document is from www.openstreetmap.org. The data is made available under ODbL."}, "elements": [{"type": "node", "id": 544560207, "lat": 43.7405785, "lon": -79.2326646}, {"type": "node", "id": 1815435225, "lat": 43.736975, "lon": -79.2446844, "tags": {"addr:city": "Scarborough", "addr:housenumber": "2803", "addr:postcode": "M1J 2E1", "addr:street": "Eglinton Avenue East", "amenity": "restaurant", "cuisine": "japanese", "name": "Nakamori Japanese Restaurant"}}, {"type": "node", "id": 2405697209, "lat": 43.735521, "lon": -79.255104}, {"type": "node", "id": 2405697210, "lat": 43.735568, "lon": -79.254894}, {"type": "node", "id": 2405697211, "lat": 43.735649, "lon": -79.255158}, {"type": "node", "id": 2405697212, "lat": 43.735666, "lon": -79.255078}, {"type": "node", "id": 2405697213, "lat": 43.735677, "lon": -79.255083}, {"type": "node", "id": 2405697214, "lat": 43.735692, "lon": -79.254965}, {"type": "node", "id": 2405697215, "lat": 43.735695, "lon": -79.254947}, {"type": "node", "id": 2405697216, "lat": 43.735709, "lon": -79.254972}, {"type": "node", "id": 2895441165, "lat": 43.7403156, "lon": -79.2327997}, {"type": "node", "id": 2895441166, "lat": 43.7403251, "lon": -79.2328797}, {"type": "node", "id": 2895441167, "lat": 43.7403358, "lon": -79.2327164}, {"type": "node", "id": 2895441168, "lat": 43.7403416, "lon": -79.2328118}, {"type": "node", "id": 2895441169, "lat": 43.7403569, "lon": -79.2327262}, {"type": "node", "id": 2895441170, "lat": 43.7403928, "lon": -79.2325783}, {"type": "node", "id": 2895441171, "lat": 43.7405058, "lon": -79.2329638}, {"type": "node", "id": 3878627571, "lat": 43.741849, "lon": -79.2607066, "tags": {"amenity": "restaurant", "capacity": "5", "cuisine": "pizza", "name": "Midland Pizza & Wings", "smoking": "no", "takeaway": "yes"}}, {"type": "node", "id": 4069812728, "lat": 43.7367437, "lon": -79.2490163, "tags": {"addr:city": "Scarborough", "addr:housenumber": "2690", "addr:postcode": "M1K 2S3", "addr:street": "Eglinton Avenue East", "amenity": "restaurant", "brand": "Eggsmart", "brand:wikidata": "Q113001388", "cuisine": "breakfast", "name": "Eggsmart"}}, {"type": "node", "id": 4462759873, "lat": 43.7348231, "lon": -79.2598077, "tags": {"amenity": "restaurant", "name": "Caribbean Cuisine"}}, {"type": "node", "id": 4462780402, "lat": 43.7347563, "lon": -79.2601137, "tags": {"amenity": "restaurant", "name": "Thai"}}, {"type": "node", "id": 4951871930, "lat": 43.7399291, "lon": -79.2362452}, {"type": "node", "id": 4951871932, "lat": 43.7399169, "lon": -79.236301}, {"type": "node", "id": 4951871939, "lat": 43.7396904, "lon": -79.2361454}, {"type": "node", "id": 4951871940, "lat": 43.7396782, "lon": -79.2362012}, {"type": "node", "id": 6186936512, "lat": 43.735689, "lon": -79.255064}, {"type": "node", "id": 6186946401, "lat": 43.735682, "lon": -79.255061}, {"type": "node", "id": 6762402714, "lat": 43.7393143, "lon": -79.2380196, "tags": {"addr:city": "Scarborough", "addr:housenumber": "2900", "addr:postcode": "M1J 2E4", "addr:street": "Eglinton Avenue East", "amenity": "restaurant", "brand": "Pizza Hut", "brand:wikidata": "Q191615", "brand:wikipedia": "en:Pizza Hut", "cuisine": "pizza", "name": "Pizza Hut"}}, {"type": "node", "id": 6762402715, "lat": 43.7393425, "lon": -79.2378568, "tags": {"addr:city": "Scarborough", "addr:housenumber": "2900", "addr:postcode": "M1J 2E4", "addr:street": "Eglinton Avenue East", "amenity": "restaurant", "name": "Wok and Fortune"}}, {"type": "node", "id": 7745283683, "lat": 43.7363986, "lon": -79.2518154, "tags": {"amenity": "restaurant", "cuisine": "german", "name": "Black Forest Fine Dining"}}, {"type": "node", "id": 7745298388, "lat": 43.7352396, "lon": -79.2468356, "tags": {"amenity": "restaurant", "cuisine": "indian", "name": "Ghareeb Nawaz Restaurant"}}, {"type": "node", "id": 7745558723, "lat": 43.7370584, "lon": -79.2442535, "tags": {"amenity": "restaurant", "cuisine": "caribbean", "name": "TOR Carribean Restaurant"}}, {"type": "node", "id": 8636711931, "lat": 43.7360787, "lon": -79.2529969, "tags": {"addr:housenumber": "2598", "addr:postcode": "M1K 2R9", "addr:street": "Eglinton Avenue East", "amenity": "restaurant", "cuisine": "somali", "name": "Hoyo's Restaurant", "phone": "+1 416 266 4696"}}, {"type": "way", "id": 232196752, "nodes": [2405697216, 2405697214, 2405697215, 2405697210, 2405697209, 2405697211, 2405697212, 2405697213, 6186946401, 6186936512, 2405697216], "tags": {"addr:city": "Toronto", "amenity": "restaurant", "building": "yes", "name": "Caribbean Coast"}}, {"type": "way", "id": 285901045, "nodes": [544560207, 2895441170, 2895441169, 2895441167, 2895441165, 2895441168, 2895441166, 2895441171, 544560207], "tags": {"addr:city": "Toronto;Scarborough", "addr:housenumber": "2990", "addr:street": "Eglinton Avenue East", "amenity": "restaurant", "brand": "Swiss Chalet", "brand:wikidata": "Q2372909", "brand:wikipedia": "en:Swiss Chalet", "building": "retail", "building:colour": "black", "building:levels": "1", "cuisine": "chicken", "name": "Swiss Chalet", "opendata:type": "107001", "toilets:wheelchair": "yes", "wheelchair": "yes"}}, {"type": "way", "id": 505186838, "nodes": [4951871939, 4951871940, 4951871932, 4951871930, 4951871939], "tags": {"addr:city": "Toronto", "addr:housenumber": "2928", "addr:street": "Eglinton Avenue East", "amenity": "restaurant", "building": "retail", "name": "Amazing Shawarma"}}]}