{"version": 0.6, "generator": "Overpass API 0.7.62.5 1bd436f1", "osm3s": {"timestamp_osm_base": "2025-03-11T10:49:00Z", "copyright": "The data included in this document is from www.openstreetmap.org. The data is made available under ODbL."}, "elements": [{"type": "node", "id": 2133092930, "lat": 43.719848, "lon": -79.301126}, {"type": "node", "id": 2133092931, "lat": 43.719865, "lon": -79.30105}, {"type": "node", "id": 2133092933, "lat": 43.719875, "lon": -79.301054}, {"type": "node", "id": 2133092934, "lat": 43.719888, "lon": -79.300996}, {"type": "node", "id": 2133092935, "lat": 43.719898, "lon": -79.301}, {"type": "node", "id": 2133092938, "lat": 43.719913, "lon": -79.300934}, {"type": "node", "id": 2133092939, "lat": 43.719956, "lon": -79.301172}, {"type": "node", "id": 2133092940, "lat": 43.719971, "lon": -79.301105}, {"type": "node", "id": 2133092941, "lat": 43.719982, "lon": -79.301109}, {"type": "node", "id": 2133092943, "lat": 43.720012, "lon": -79.300975}, {"type": "node", "id": 4265527302, "lat": 43.722417, "lon": -79.3023239, "tags": {"addr:city": "Toronto", "addr:housenumber": "1468", "addr:postcode": "M4A 2M2", "addr:street": "Victoria Park Avenue", "amenity": "restaurant", "cuisine": "thai", "name": "Yummy Gardens", "phone": "+1-416-757-2200", "website": "http://www.yummygarden.ca"}}, {"type": "node", "id": 4328475934, "lat": 43.7153537, "lon": -79.3047699, "tags": {"addr:housenumber": "1549", "addr:postcode": "M4B 2V7", "addr:street": "O'Connor Drive", "amenity": "restaurant", "cuisine": "greek", "name": "Zorba's", "phone": "+1-416-406-1212", "smoking": "no", "takeaway": "yes"}}, {"type": "node", "id": 6647318529, "lat": 43.7194921, "lon": -79.3009821, "tags": {"addr:housenumber": "1410", "addr:street": "Victoria Park Avenue", "addr:unit": "10", "amenity": "restaurant", "cuisine": "indian", "diet:vegan": "yes", "name": "The Veggie Thali"}}, {"type": "node", "id": 6647318530, "lat": 43.7193608, "lon": -79.3009237, "tags": {"amenity": "restaurant", "cuisine": "jamaican", "name": "Sansimian", "takeaway": "yes"}}, {"type": "node", "id": 7403655249, "lat": 43.73606, "lon": -79.3080538, "tags": {"addr:city": "North York", "addr:housenumber": "1746", "addr:postcode": "M1R 1R4", "addr:street": "Victoria Park Avenue", "amenity": "restaurant", "brand": "Osmow's", "brand:wikidata": "Q115048716", "cuisine": "mediterranean;shawarma", "name": "Osmow's", "takeaway": "yes"}}, {"type": "way", "id": 203303418, "nodes": [2133092943, 2133092938, 2133092935, 2133092934, 2133092933, 2133092931, 2133092930, 2133092939, 2133092940, 2133092941, 2133092943], "tags": {"amenity": "restaurant", "building": "retail", "name": "Sunrise Bar & Restaurant"}}]}