{"version": 0.6, "generator": "Overpass API 0.7.62.5 1bd436f1", "osm3s": {"timestamp_osm_base": "2025-03-11T12:49:15Z", "copyright": "The data included in this document is from www.openstreetmap.org. The data is made available under ODbL."}, "elements": [{"type": "node", "id": 502717433, "lat": 43.6736422, "lon": -79.4632078, "tags": {"addr:housenumber": "1832", "addr:street": "St. Clair Avenue West", "check_date": "2025-02-06", "name": "Peter Pan 'K' Convenience", "opening_hours": "Mo-Fr 11:00-23:30; Sa-Su 09:30-23:30", "phone": "+1 4166527233", "shop": "convenience"}}, {"type": "node", "id": 502717451, "lat": 43.6740857, "lon": -79.4597067, "tags": {"name": "St. Lucia Variety", "shop": "convenience"}}, {"type": "node", "id": 502717470, "lat": 43.674596, "lon": -79.4574041, "tags": {"name": "Golden Star", "shop": "convenience"}}, {"type": "node", "id": 1647968772, "lat": 43.6737308, "lon": -79.4628416, "tags": {"shop": "convenience"}}, {"type": "node", "id": 4364806437, "lat": 43.6747408, "lon": -79.4569171}, {"type": "node", "id": 4364806439, "lat": 43.6746268, "lon": -79.4561001}, {"type": "node", "id": 4364806440, "lat": 43.6746758, "lon": -79.4561211}, {"type": "node", "id": 4364806441, "lat": 43.6746518, "lon": -79.4562301}, {"type": "node", "id": 4364806442, "lat": 43.6746878, "lon": -79.4562451}, {"type": "node", "id": 4364806443, "lat": 43.6746188, "lon": -79.4565521}, {"type": "node", "id": 4364806444, "lat": 43.6746888, "lon": -79.4565821}, {"type": "node", "id": 4364806445, "lat": 43.6746718, "lon": -79.4566571}, {"type": "node", "id": 4364806446, "lat": 43.6747878, "lon": -79.4567061}, {"type": "node", "id": 4932801710, "lat": 43.6746068, "lon": -79.4573323, "tags": {"name": "Dollar & Variety Store", "shop": "convenience"}}, {"type": "node", "id": 5163547295, "lat": 43.6744728, "lon": -79.4568031}, {"type": "node", "id": 6208914647, "lat": 43.6746098, "lon": -79.4568611}, {"type": "node", "id": 6208914774, "lat": 43.6745038, "lon": -79.4568171}, {"type": "node", "id": 6208914775, "lat": 43.6746098, "lon": -79.4568621}, {"type": "node", "id": 11625184401, "lat": 43.677294, "lon": -79.4611541, "tags": {"addr:housenumber": "78", "addr:street": "Rockwell Avenue", "check_date": "2025-02-06", "level": "0", "name": "Pacho\u2019s Convenience", "opening_hours": "Mo-Sa 07:30-20:00; Su 07:30-18:00", "payment:cash": "yes", "payment:credit_cards": "yes", "payment:debit_cards": "yes", "phone": "+1 6473470069", "shop": "convenience", "wheelchair": "no"}}, {"type": "way", "id": 438819829, "nodes": [4364806446, 4364806445, 4364806444, 4364806443, 4364806442, 4364806441, 4364806440, 4364806439, 5163547295, 6208914774, 6208914775, 6208914647, 4364806437, 4364806446], "tags": {"addr:city": "Toronto", "addr:housenumber": "1625", "addr:postcode": "M6N 1H7", "addr:street": "St. Clair Avenue West", "building": "retail", "check_date": "2023-11-09", "name": "Tavora Foods", "opening_hours": "Mo-Th 08:00-19:30; Fr 08:00-20:00; Sa 08:00-19:00; Su 08:00-16:00", "operator": "Tavora Foods", "phone": "+1-416-656-1592", "shop": "supermarket", "website": "https://www.tavora.ca/"}}]}