{"version": 0.6, "generator": "Overpass API 0.7.62.5 1bd436f1", "osm3s": {"timestamp_osm_base": "2025-03-11T12:17:45Z", "copyright": "The data included in this document is from www.openstreetmap.org. The data is made available under ODbL."}, "elements": [{"type": "node", "id": 373153520, "lat": 43.7729662, "lon": -79.507711, "tags": {"amenity": "cafe", "brand": "Tim Hortons", "brand:wikidata": "Q175106", "brand:wikipedia": "en:Tim Hortons", "check_date": "2024-11-11", "cuisine": "coffee_shop", "name": "Tim Hortons", "opening_hours": "Mo-Th 07:00-18:00; Fr 07:00-17:00; Su 09:00-16:00", "outdoor_seating": "no", "takeaway": "yes", "wheelchair": "yes"}}, {"type": "node", "id": 410798906, "lat": 43.7676749, "lon": -79.4742766, "tags": {"amenity": "cafe", "brand": "Coffee Time", "brand:wikidata": "Q5140932", "brand:wikipedia": "en:Coffee Time", "cuisine": "coffee_shop", "name": "Coffee Time", "takeaway": "yes"}}, {"type": "node", "id": 502783306, "lat": 43.7642151, "lon": -79.4888265, "tags": {"addr:city": "North York", "addr:housenumber": "1280", "addr:street": "Finch Avenue West", "amenity": "cafe", "brand": "Tim Hortons", "brand:wikidata": "Q175106", "brand:wikipedia": "en:Tim Hortons", "cuisine": "coffee_shop", "name": "Tim Hortons", "opening_hours": "24/7", "takeaway": "yes"}}, {"type": "node", "id": 911226019, "lat": 43.7729031, "lon": -79.5049921, "tags": {"amenity": "cafe", "brand": "Tim Hortons", "brand:wikidata": "Q175106", "brand:wikipedia": "en:Tim Hortons", "cuisine": "coffee_shop", "name": "Tim Hortons", "takeaway": "yes", "wheelchair": "yes"}}, {"type": "node", "id": 1111980964, "lat": 43.7741985, "lon": -79.5017389, "tags": {"addr:city": "Toronto", "addr:housenumber": "80", "addr:postcode": "M3J 1P3", "addr:province": "ON", "addr:street": "York Boulevard", "amenity": "cafe", "cuisine": "bubble_tea", "name": "The Campus Bubble Tea", "opening_hours": "Mo-Fr 10:30-20:30; Sa-Su 13:00-20:30", "outdoor_seating": "no", "phone": "+1 416-931-8662", "wheelchair": "yes"}}, {"type": "node", "id": 1112701053, "lat": 43.7742685, "lon": -79.4931718, "tags": {"amenity": "cafe", "brand": "Tim Hortons", "brand:wikidata": "Q175106", "brand:wikipedia": "en:Tim Hortons", "cuisine": "coffee_shop", "name": "Tim Hortons", "takeaway": "yes"}}, {"type": "node", "id": 1131208946, "lat": 43.7559518, "lon": -79.4738907, "tags": {"amenity": "cafe", "brand": "Coffee Time", "brand:wikidata": "Q5140932", "brand:wikipedia": "en:Coffee Time", "cuisine": "coffee_shop", "name": "Coffee Time", "takeaway": "yes"}}, {"type": "node", "id": 1460719968, "lat": 43.7679663, "lon": -79.4724961}, {"type": "node", "id": 1460719973, "lat": 43.767979, "lon": -79.4723816}, {"type": "node", "id": 1460719975, "lat": 43.768033, "lon": -79.4723931}, {"type": "node", "id": 1460719979, "lat": 43.7680348, "lon": -79.4723764}, {"type": "node", "id": 1460719984, "lat": 43.7680791, "lon": -79.4724156}, {"type": "node", "id": 1460719986, "lat": 43.7680824, "lon": -79.4723865}, {"type": "node", "id": 1460719987, "lat": 43.7681103, "lon": -79.4724222}, {"type": "node", "id": 1460719991, "lat": 43.7681138, "lon": -79.4723907}, {"type": "node", "id": 1460719993, "lat": 43.7682058, "lon": -79.4725471}, {"type": "node", "id": 1460719996, "lat": 43.7682207, "lon": -79.4724134}, {"type": "node", "id": 2203975946, "lat": 43.785937, "lon": -79.4743383, "tags": {"alt_name": "Starbucks Coffee", "amenity": "cafe", "brand": "Starbucks", "brand:wikidata": "Q37158", "brand:wikipedia": "en:Starbucks", "cuisine": "coffee_shop", "name": "Starbucks", "official_name": "Starbucks Coffee", "opening_hours": "Mo-Fr 05:30-22:30; Sa,Su 06:00-22:00", "takeaway": "yes"}}, {"type": "node", "id": 2622869294, "lat": 43.7718704, "lon": -79.501022, "tags": {"amenity": "cafe", "brand": "Tim Hortons", "brand:wikidata": "Q175106", "brand:wikipedia": "en:Tim Hortons", "cuisine": "coffee_shop", "name": "Tim Hortons", "takeaway": "yes"}}, {"type": "node", "id": 3229198861, "lat": 43.7725884, "lon": -79.5016002, "tags": {"alt_name": "Starbucks Coffee", "amenity": "cafe", "brand": "Starbucks", "brand:wikidata": "Q37158", "brand:wikipedia": "en:Starbucks", "cuisine": "coffee_shop", "name": "Starbucks", "official_name": "Starbucks Coffee", "takeaway": "yes"}}, {"type": "node", "id": 3229210091, "lat": 43.776242, "lon": -79.5023882, "tags": {"amenity": "cafe", "brand": "Country Style", "brand:wikidata": "Q5177435", "brand:wikipedia": "en:Country Style", "cuisine": "coffee_shop", "level": "0", "name": "Country Style", "takeaway": "yes"}}, {"type": "node", "id": 3306467139, "lat": 43.7544117, "lon": -79.4878235, "tags": {"addr:city": "North York", "addr:housenumber": "3685", "addr:postcode": "M3J 3H6", "addr:street": "Keele Street", "amenity": "cafe", "brand": "Tim Hortons", "brand:wikidata": "Q175106", "brand:wikipedia": "en:Tim Hortons", "cuisine": "coffee_shop", "drive_through": "no", "internet_access": "wlan", "name": "Tim Hortons", "opening_hours": "05:30-10:00; Mo-Su 05:30-22:00", "smoking": "outside", "takeaway": "yes"}}, {"type": "node", "id": 3329263291, "lat": 43.7864717, "lon": -79.4704499, "tags": {"amenity": "cafe", "brand": "Tim Hortons", "brand:wikidata": "Q175106", "brand:wikipedia": "en:Tim Hortons", "cuisine": "coffee_shop", "name": "Tim Hortons", "takeaway": "yes"}}, {"type": "node", "id": 4175099976, "lat": 43.7683031, "lon": -79.4671298, "tags": {"amenity": "cafe", "brand": "Tim Hortons", "brand:wikidata": "Q175106", "brand:wikipedia": "en:Tim Hortons", "cuisine": "coffee_shop", "name": "Tim Hortons", "takeaway": "yes"}}, {"type": "node", "id": 4462227689, "lat": 43.7720428, "lon": -79.5001596, "tags": {"amenity": "cafe", "brand": "Tim Hortons", "brand:wikidata": "Q175106", "brand:wikipedia": "en:Tim Hortons", "cuisine": "coffee_shop", "name": "Tim Hortons", "name:en": "Tim Hortons", "takeaway": "yes"}}, {"type": "node", "id": 5410066087, "lat": 43.7728349, "lon": -79.5051766, "tags": {"alt_name": "Starbucks Coffee", "amenity": "cafe", "brand": "Starbucks", "brand:wikidata": "Q37158", "brand:wikipedia": "en:Starbucks", "cuisine": "coffee_shop", "name": "Starbucks", "official_name": "Starbucks Coffee", "takeaway": "yes"}}, {"type": "node", "id": 5793561215, "lat": 43.7698334, "lon": -79.502135, "tags": {"amenity": "cafe", "brand": "Aroma Espresso Bar", "brand:wikidata": "Q2909872", "brand:wikipedia": "en:Aroma Espresso Bar", "cuisine": "coffee_shop", "name": "Aroma Espresso Bar", "takeaway": "yes"}}, {"type": "node", "id": 6068842914, "lat": 43.7702114, "lon": -79.5005108, "tags": {"amenity": "cafe", "brand": "Gong Cha", "brand:wikidata": "Q5581670", "brand:wikipedia": "en:Gong Cha", "brand:zh": "\u8ca2\u8336", "cuisine": "bubble_tea", "int_name": "Gong Cha", "name": "Gong Cha", "name:zh": "\u8ca2\u8336", "outdoor_seating": "no", "takeaway": "yes"}}, {"type": "node", "id": 6780423435, "lat": 43.7607221, "lon": -79.499267, "tags": {"amenity": "cafe", "brand": "Tim Hortons", "brand:wikidata": "Q175106", "brand:wikipedia": "en:Tim Hortons", "cuisine": "coffee_shop", "name": "Tim Hortons", "takeaway": "yes"}}, {"type": "node", "id": 7553898749, "lat": 43.7586843, "lon": -79.4662575, "tags": {"amenity": "cafe", "brand": "Starbucks", "brand:wikidata": "Q37158", "brand:wikipedia": "en:Starbucks", "cuisine": "coffee_shop", "name": "Starbucks", "official_name": "Starbucks Coffee", "takeaway": "yes"}}, {"type": "node", "id": 8094670575, "lat": 43.7663146, "lon": -79.4762178, "tags": {"amenity": "cafe", "brand": "Starbucks", "brand:wikidata": "Q37158", "brand:wikipedia": "en:Starbucks", "cuisine": "coffee_shop", "name": "Starbucks", "official_name": "Starbucks Coffee", "takeaway": "yes"}}, {"type": "node", "id": 10820592986, "lat": 43.7745409, "lon": -79.5011588, "tags": {"amenity": "cafe", "brand": "Aroma Espresso Bar", "brand:wikidata": "Q2909872", "cuisine": "coffee_shop", "name": "Aroma Espresso Bar", "outdoor_seating": "no", "takeaway": "yes", "wheelchair": "yes"}}, {"type": "way", "id": 132782085, "nodes": [1460719996, 1460719993, 1460719968, 1460719973, 1460719975, 1460719979, 1460719986, 1460719984, 1460719987, 1460719991, 1460719996], "tags": {"addr:housenumber": "1060", "addr:street": "Finch Avenue West", "amenity": "cafe", "brand": "Tim Hortons", "brand:wikidata": "Q175106", "brand:wikipedia": "en:Tim Hortons", "building": "yes", "cuisine": "coffee_shop", "name": "Tim Hortons", "source": "Bing", "takeaway": "yes"}}]}