{"version": 0.6, "generator": "Overpass API 0.7.62.5 1bd436f1", "osm3s": {"timestamp_osm_base": "2025-02-19T12:48:12Z", "copyright": "The data included in this document is from www.openstreetmap.org. The data is made available under ODbL."}, "elements": [{"type": "node", "id": 387790713, "lat": 43.7052826, "lon": -79.3486659}, {"type": "node", "id": 387790714, "lat": 43.705083, "lon": -79.3485974}, {"type": "node", "id": 387790715, "lat": 43.7049903, "lon": -79.3486545}, {"type": "node", "id": 387790716, "lat": 43.7051672, "lon": -79.3488444}, {"type": "node", "id": 387791396, "lat": 43.7077422, "lon": -79.3442136, "tags": {"amenity": "restaurant", "name": "Karahi Point", "wheelchair": "yes"}}, {"type": "node", "id": 388619755, "lat": 43.7081819, "lon": -79.3437206, "tags": {"addr:city": "East York", "addr:housename": "Overlea Plaza", "addr:housenumber": "62", "addr:street": "Overlea Boulevard", "addr:unit": "8", "amenity": "restaurant", "cuisine": "chinese", "diet:halal": "yes", "name": "Faley Restaurant", "opendata:type": "113001", "phone": "+1-416-423-3222", "shop": "cash", "wheelchair": "yes"}}, {"type": "node", "id": 2070444199, "lat": 43.7050463, "lon": -79.3485486}, {"type": "node", "id": 2070444201, "lat": 43.7051539, "lon": -79.3484839}, {"type": "node", "id": 2070444203, "lat": 43.7052758, "lon": -79.3486113}, {"type": "node", "id": 2111439142, "lat": 43.7079495, "lon": -79.3434312, "tags": {"addr:city": "East York", "addr:housename": "Overlea Plaza", "addr:housenumber": "62", "addr:street": "Overlea Boulevard", "addr:unit": "3", "amenity": "restaurant", "cuisine": "afghan", "name": "Bamiyan Kabob", "smoking": "no", "source": "survey", "takeaway": "yes", "wheelchair": "yes"}}, {"type": "node", "id": 2131525061, "lat": 43.7060153, "lon": -79.361087}, {"type": "node", "id": 2131525064, "lat": 43.7061774, "lon": -79.3611554}, {"type": "node", "id": 2131525072, "lat": 43.7059322, "lon": -79.3614778}, {"type": "node", "id": 2131525080, "lat": 43.7060613, "lon": -79.3615387}, {"type": "node", "id": 2557484427, "lat": 43.7101774, "lon": -79.3627728, "tags": {"addr:city": "Toronto", "addr:housenumber": "45", "addr:street": "Wicksteed Avenue", "amenity": "restaurant", "brand": "Sunset Grill", "brand:wikidata": "Q62112489", "brand:wikipedia": "en:Sunset Grill (Canadian restaurant chain)", "cuisine": "american", "name": "Sunset Grill"}}, {"type": "node", "id": 2621369190, "lat": 43.7102033, "lon": -79.3626858, "tags": {"addr:city": "Toronto", "addr:housenumber": "45", "addr:street": "Wicksteed Avenue", "amenity": "restaurant", "cuisine": "sushi;japanese", "name": "Maki Sushi", "website": "http://www.makisushi.ca/"}}, {"type": "node", "id": 2633880437, "lat": 43.7061173, "lon": -79.351816, "tags": {"addr:city": "East York", "addr:housenumber": "2", "addr:postcode": "M4K 1V5", "addr:street": "Thorncliffe Park Drive", "amenity": "restaurant", "cuisine": "pakistani", "name": "Iqbal Kebab & Sweet Centre", "phone": "+1-416-425-7866", "website": "http://www.iqbalkebab.com/"}}, {"type": "node", "id": 2691610692, "lat": 43.7061055, "lon": -79.3615088}, {"type": "node", "id": 10872350333, "lat": 43.7130545, "lon": -79.3598092, "tags": {"amenity": "restaurant", "brand": "Eggsmart", "brand:wikidata": "Q113001388", "check_date": "2023-05-05", "cuisine": "breakfast", "level": "0", "name": "Eggsmart", "opening_hours": "Mo-Fr 07:00-15:00; Sa-Su 07:00-16:00", "wheelchair": "yes"}}, {"type": "node", "id": 12250879243, "lat": 43.7045467, "lon": -79.3497467, "tags": {"amenity": "restaurant", "name": "Hakka Garden"}}, {"type": "node", "id": 12250917794, "lat": 43.7083135, "lon": -79.3426495, "tags": {"amenity": "restaurant", "name": "Mandiafandi"}}, {"type": "node", "id": 12349956412, "lat": 43.7083161, "lon": -79.3434658}, {"type": "node", "id": 12349956413, "lat": 43.708273, "lon": -79.3434465}, {"type": "node", "id": 12349956414, "lat": 43.7082159, "lon": -79.3434179}, {"type": "node", "id": 12349956415, "lat": 43.7082749, "lon": -79.3431936}, {"type": "node", "id": 12349956416, "lat": 43.708365, "lon": -79.3432461}, {"type": "way", "id": 33848911, "nodes": [387790713, 2070444203, 2070444201, 387790714, 2070444199, 387790715, 387790716, 387790713], "tags": {"amenity": "restaurant", "building": "retail", "building:levels": "1", "cuisine": "kebab", "name": "Kandahar Kabab"}}, {"type": "way", "id": 203172003, "nodes": [2131525072, 2131525061, 2131525064, 2691610692, 2131525080, 2131525072], "tags": {"addr:city": "East York", "addr:housenumber": "87", "addr:postcode": "M4G 3T7", "addr:street": "Laird Drive", "amenity": "restaurant", "building": "yes", "name": "Against the Grain Urban Tavern"}}, {"type": "way", "id": 1334953660, "nodes": [12349956412, 12349956413, 12349956414, 12349956415, 12349956416, 12349956412], "tags": {"addr:city": "Toronto", "addr:housenumber": "62", "addr:postcode": "M4H 1E7", "addr:province": "On", "addr:street": "Overlea Boulevard", "amenity": "restaurant", "building": "yes", "cuisine": "pizza;burger", "diet:halal": "yes", "name": "Watan Pizza"}}]}