{"version": 0.6, "generator": "Overpass API 0.7.62.5 1bd436f1", "osm3s": {"timestamp_osm_base": "2025-03-11T10:49:00Z", "copyright": "The data included in this document is from www.openstreetmap.org. The data is made available under ODbL."}, "elements": [{"type": "node", "id": 2534750298, "lat": 43.6822548, "lon": -79.4711555, "tags": {"amenity": "restaurant", "cuisine": "sushi", "name": "Kokyo Sushi"}}, {"type": "node", "id": 2534750299, "lat": 43.6818554, "lon": -79.4709497, "tags": {"amenity": "restaurant", "cuisine": "regional", "name": "King's BBQ Chicken Restaurant"}}, {"type": "node", "id": 3388216810, "lat": 43.6820095, "lon": -79.474727, "tags": {"addr:street": "Rogers Road", "amenity": "restaurant", "cuisine": "chinese", "name": "Lucky Chinese Food"}}, {"type": "node", "id": 3388557766, "lat": 43.6807421, "lon": -79.4733988, "tags": {"amenity": "restaurant", "cuisine": "portuguese", "name": "Churrasquerira Martins Grill House", "phone": "+1-416-657-4343", "takeaway": "yes"}}, {"type": "node", "id": 6191010248, "lat": 43.68983, "lon": -79.475515}, {"type": "node", "id": 6191010249, "lat": 43.689733, "lon": -79.475473}, {"type": "node", "id": 6191010250, "lat": 43.689753, "lon": -79.47538}, {"type": "node", "id": 6191010251, "lat": 43.689852, "lon": -79.475421}, {"type": "node", "id": 6191010252, "lat": 43.689854, "lon": -79.475411}, {"type": "node", "id": 6191010253, "lat": 43.68992, "lon": -79.47544}, {"type": "node", "id": 6191010261, "lat": 43.689828, "lon": -79.475525}, {"type": "node", "id": 6191010262, "lat": 43.689894, "lon": -79.475553}, {"type": "node", "id": 6199091674, "lat": 43.6817932, "lon": -79.4683457}, {"type": "node", "id": 6199091675, "lat": 43.6818747, "lon": -79.4682003}, {"type": "node", "id": 6199091677, "lat": 43.6818937, "lon": -79.4681773}, {"type": "node", "id": 6199091679, "lat": 43.6819127, "lon": -79.4681693}, {"type": "node", "id": 6199091680, "lat": 43.6819257, "lon": -79.4681683}, {"type": "node", "id": 6199091681, "lat": 43.6819397, "lon": -79.4681713}, {"type": "node", "id": 6199091682, "lat": 43.6819497, "lon": -79.4681763}, {"type": "node", "id": 6199091683, "lat": 43.6819597, "lon": -79.4681843}, {"type": "node", "id": 6199091684, "lat": 43.6819637, "lon": -79.4681903}, {"type": "node", "id": 6199091691, "lat": 43.6818134, "lon": -79.4684}, {"type": "node", "id": 6199091693, "lat": 43.6818775, "lon": -79.4683573}, {"type": "node", "id": 6199091696, "lat": 43.6819355, "lon": -79.4683153}, {"type": "node", "id": 6199091697, "lat": 43.6819925, "lon": -79.4682733}, {"type": "node", "id": 6199091701, "lat": 43.6819697, "lon": -79.4685918}, {"type": "node", "id": 6199091702, "lat": 43.6818508, "lon": -79.4686733}, {"type": "node", "id": 6199091707, "lat": 43.6818032, "lon": -79.4685405}, {"type": "node", "id": 6199091709, "lat": 43.6819221, "lon": -79.468459}, {"type": "node", "id": 7403736444, "lat": 43.6819345, "lon": -79.4718456, "tags": {"addr:city": "Toronto", "addr:housenumber": "605", "addr:postcode": "M6M 1B9", "addr:street": "Rogers Road", "amenity": "restaurant", "brand": "Osmow's", "brand:wikidata": "Q115048716", "cuisine": "mediterranean;shawarma", "name": "Osmow's", "takeaway": "yes"}}, {"type": "node", "id": 7559857487, "lat": 43.6907104, "lon": -79.4718212, "tags": {"amenity": "restaurant", "cuisine": "chinese", "name": "Oriental City"}}, {"type": "node", "id": 7559857498, "lat": 43.6898639, "lon": -79.4755641, "tags": {"amenity": "restaurant", "cuisine": "vietnamese", "name": "Banh Mi"}}, {"type": "node", "id": 7564727451, "lat": 43.6824882, "lon": -79.464038, "tags": {"amenity": "restaurant", "name": "O'Sole Mio"}}, {"type": "node", "id": 7580979788, "lat": 43.6864983, "lon": -79.4732493, "tags": {"amenity": "restaurant", "name": "Fay's Kitchen"}}, {"type": "node", "id": 7580979790, "lat": 43.6863447, "lon": -79.4731828, "tags": {"amenity": "restaurant", "cuisine": "pizza", "name": "Mastro Nick"}}, {"type": "way", "id": 661292531, "nodes": [6191010253, 6191010252, 6191010251, 6191010250, 6191010249, 6191010248, 6191010261, 6191010262, 6191010253], "tags": {"addr:city": "Toronto", "addr:housenumber": "2631", "addr:postcode": "M6M 1T9", "addr:province": "Ontario", "addr:street": "Eglinton Ave W, York", "amenity": "restaurant", "building": "retail", "building:levels": "2", "cuisine": "turkish", "name": "Two Brothers Shawarma"}}, {"type": "way", "id": 662149974, "nodes": [6199091684, 6199091683, 6199091682, 6199091681, 6199091680, 6199091679, 6199091677, 6199091675, 6199091674, 6199091691, 6199091693, 6199091696, 6199091697, 6199091684], "tags": {"amenity": "restaurant", "building": "retail", "cuisine": "caribbean", "name": "Scotty Bons"}}, {"type": "way", "id": 662149976, "nodes": [6199091709, 6199091707, 6199091702, 6199091701, 6199091709], "tags": {"amenity": "restaurant", "building": "retail", "cuisine": "pizza", "name": "North of Brooklyn", "opening_hours": "Mo-We 16:00-22:00; Th-Fr 16:00-23:00; Sa 12:00-23:00; Su 12:00-22:00", "wheelchair": "limited"}}]}