{"version": 0.6, "generator": "Overpass API 0.7.62.5 1bd436f1", "osm3s": {"timestamp_osm_base": "2025-03-11T12:41:04Z", "copyright": "The data included in this document is from www.openstreetmap.org. The data is made available under ODbL."}, "elements": [{"type": "node", "id": 366319758, "lat": 43.7284509, "lon": -79.4815805}, {"type": "node", "id": 366319766, "lat": 43.7285562, "lon": -79.4810888}, {"type": "node", "id": 366319768, "lat": 43.7283273, "lon": -79.480992}, {"type": "node", "id": 366320000, "lat": 43.7281171, "lon": -79.480907}, {"type": "node", "id": 366320003, "lat": 43.728076, "lon": -79.4808849}, {"type": "node", "id": 366320006, "lat": 43.7279723, "lon": -79.4814099}, {"type": "node", "id": 366320009, "lat": 43.7279755, "lon": -79.4814112}, {"type": "node", "id": 366320011, "lat": 43.7279364, "lon": -79.4815931}, {"type": "node", "id": 366320014, "lat": 43.7283343, "lon": -79.4817569}, {"type": "node", "id": 366320017, "lat": 43.7283787, "lon": -79.4815507}, {"type": "node", "id": 2072023133, "lat": 43.7285017, "lon": -79.4783802, "tags": {"name": "Smoke & Gifts Variety", "shop": "convenience"}}, {"type": "node", "id": 6538687480, "lat": 43.7266357, "lon": -79.4833174, "tags": {"name": "Keele & Wilson Mr. Smoke & Variety", "shop": "convenience"}}, {"type": "node", "id": 6538687885, "lat": 43.726676, "lon": -79.4831298, "tags": {"name": "Bayanihan Express", "shop": "convenience"}}, {"type": "node", "id": 6545539551, "lat": 43.730035, "lon": -79.4703445, "tags": {"name": "Darrel Concept Philippines", "shop": "convenience"}}, {"type": "node", "id": 6545539552, "lat": 43.730024, "lon": -79.4704075, "tags": {"name": "Sabor Tolimense", "shop": "convenience"}}, {"type": "node", "id": 6545539576, "lat": 43.7300641, "lon": -79.4675649, "tags": {"brand": "Shell Select", "brand:wikidata": "Q110716465", "brand:wikipedia": "en:Royal Dutch Shell", "name": "Shell Select", "shop": "convenience"}}, {"type": "node", "id": 6545575952, "lat": 43.7303189, "lon": -79.4668629, "tags": {"name": "El Rancherito", "shop": "convenience"}}, {"type": "node", "id": 6545575960, "lat": 43.730871, "lon": -79.4671015, "tags": {"name": "Andy's Variety", "shop": "convenience"}}, {"type": "node", "id": 6545586937, "lat": 43.7313797, "lon": -79.4648466, "tags": {"name": "K&D Variety", "shop": "convenience"}}, {"type": "node", "id": 6545586952, "lat": 43.7316589, "lon": -79.4635388, "tags": {"name": "Sunny Days Smoke & Variety", "shop": "convenience"}}, {"type": "node", "id": 6545684809, "lat": 43.7307752, "lon": -79.4587718, "tags": {"name": "Yorkdale Mini Mart", "shop": "convenience"}}, {"type": "node", "id": 7553606742, "lat": 43.7438967, "lon": -79.4867345, "tags": {"shop": "convenience"}}, {"type": "node", "id": 10844912156, "lat": 43.7324731, "lon": -79.458693, "tags": {"brand": "Shell", "brand:wikidata": "Q110716465", "name": "Shell", "shop": "convenience"}}, {"type": "way", "id": 696803995, "nodes": [366320000, 366320003, 366320006, 366320009, 366320011, 366320014, 366320017, 366319758, 366319766, 366319768, 366320000], "tags": {"addr:city": "Toronto", "addr:housenumber": "1090", "addr:postal": "M3K 1G6", "addr:province": "Ontario", "addr:street": "Wilson Avenue", "brand": "Metro", "brand:wikidata": "Q1145669", "brand:wikipedia": "en:Metro Inc.", "building": "retail", "building:colour": "beige", "building:levels": "1", "fax": "+1-416-635-5170", "name": "Metro", "opening_hours": "Mo-Fr 07:00-22:00; Sa, Su 07:00-20:00", "phone": "+1-416-635-0284", "shop": "supermarket", "website": "https://www.metro.ca/en/find-a-grocery/321"}}]}