{"version": 0.6, "generator": "Overpass API 0.7.62.5 1bd436f1", "osm3s": {"timestamp_osm_base": "2025-02-19T16:08:15Z", "copyright": "The data included in this document is from www.openstreetmap.org. The data is made available under ODbL."}, "elements": [{"type": "node", "id": 137441530, "lat": 43.7543846, "lon": -79.2159596, "tags": {"amenity": "restaurant", "name": "Prague Restaurant"}}, {"type": "node", "id": 384785117, "lat": 43.7572163, "lon": -79.2347236, "tags": {"addr:city": "Scarborough", "addr:housenumber": "3351", "addr:street": "Lawrence Avenue East", "addr:unit": "4", "amenity": "restaurant", "brand": "Pizza Hut", "brand:wikidata": "Q191615", "brand:wikipedia": "en:Pizza Hut", "cuisine": "pizza", "name": "Pizza Hut", "operator": "Yum! Brands", "phone": "+1-416-439-5550"}}, {"type": "node", "id": 2627475005, "lat": 43.762417, "lon": -79.225857}, {"type": "node", "id": 2627475006, "lat": 43.762541, "lon": -79.226068}, {"type": "node", "id": 2627475007, "lat": 43.762542, "lon": -79.226063}, {"type": "node", "id": 2627475008, "lat": 43.762554, "lon": -79.226008}, {"type": "node", "id": 2627475009, "lat": 43.762572, "lon": -79.225919}, {"type": "node", "id": 2627475010, "lat": 43.762591, "lon": -79.226083}, {"type": "node", "id": 2627475011, "lat": 43.762603, "lon": -79.226027}, {"type": "node", "id": 6184797331, "lat": 43.762386, "lon": -79.226006}, {"type": "node", "id": 6593962013, "lat": 43.7612719, "lon": -79.2252465, "tags": {"amenity": "restaurant", "cuisine": "vietnamese", "name": "Pho Dau Bo"}}, {"type": "node", "id": 6594563449, "lat": 43.7616365, "lon": -79.2256238, "tags": {"amenity": "restaurant", "cuisine": "filipino", "name": "Nanay Meding's Restaurant"}}, {"type": "node", "id": 6594592565, "lat": 43.7671528, "lon": -79.2276938, "tags": {"amenity": "restaurant", "cuisine": "indian", "name": "Godavari"}}, {"type": "way", "id": 257145886, "nodes": [2627475011, 2627475008, 2627475009, 2627475005, 6184797331, 2627475006, 2627475007, 2627475010, 2627475011], "tags": {"addr:city": "Toronto", "amenity": "restaurant", "brand": "Max's Restaurant", "brand:wikidata": "Q6794477", "brand:wikipedia": "en:Max's Restaurant", "building": "retail", "building:levels": "1", "cuisine": "asian", "drive_through": "no", "name": "Max's Restaurant", "operator": "Yum! Brands"}}]}