{"version": 0.6, "generator": "Overpass API 0.7.62.5 1bd436f1", "osm3s": {"timestamp_osm_base": "2025-03-11T10:42:53Z", "copyright": "The data included in this document is from www.openstreetmap.org. The data is made available under ODbL."}, "elements": [{"type": "node", "id": 382800228, "lat": 43.7403406, "lon": -79.2256637}, {"type": "node", "id": 382800229, "lat": 43.7400785, "lon": -79.2268501}, {"type": "node", "id": 382800230, "lat": 43.7384223, "lon": -79.2261827}, {"type": "node", "id": 382800231, "lat": 43.7385819, "lon": -79.2255361}, {"type": "node", "id": 382800232, "lat": 43.7388225, "lon": -79.2256379}, {"type": "node", "id": 382800233, "lat": 43.739137, "lon": -79.2242142}, {"type": "node", "id": 382800234, "lat": 43.7397226, "lon": -79.2244621}, {"type": "node", "id": 382800235, "lat": 43.7395327, "lon": -79.2253218}, {"type": "node", "id": 418525189, "lat": 43.7408837, "lon": -79.2117846}, {"type": "node", "id": 418525190, "lat": 43.7406029, "lon": -79.2130207}, {"type": "node", "id": 418525191, "lat": 43.7390973, "lon": -79.2123718}, {"type": "node", "id": 418525192, "lat": 43.7393913, "lon": -79.2111248}, {"type": "node", "id": 418526073, "lat": 43.7468517, "lon": -79.2159624}, {"type": "node", "id": 418526074, "lat": 43.7453046, "lon": -79.2152875}, {"type": "node", "id": 418526075, "lat": 43.745613, "lon": -79.213958}, {"type": "node", "id": 418526076, "lat": 43.7471356, "lon": -79.2146157}, {"type": "node", "id": 418526126, "lat": 43.7414802, "lon": -79.2195315}, {"type": "node", "id": 418526127, "lat": 43.7412274, "lon": -79.2206888}, {"type": "node", "id": 418526128, "lat": 43.7402201, "lon": -79.2202733}, {"type": "node", "id": 2336691721, "lat": 43.7430542, "lon": -79.2222812}, {"type": "node", "id": 2336691723, "lat": 43.743179, "lon": -79.2216882}, {"type": "node", "id": 2336691725, "lat": 43.7438311, "lon": -79.2219512}, {"type": "node", "id": 2336691727, "lat": 43.7439992, "lon": -79.2211522}, {"type": "node", "id": 2336691729, "lat": 43.7442383, "lon": -79.2227587}, {"type": "node", "id": 2336691731, "lat": 43.7445313, "lon": -79.2213668}, {"type": "node", "id": 2807721322, "lat": 43.7469938, "lon": -79.2152896}, {"type": "node", "id": 2807721323, "lat": 43.7461466, "lon": -79.2142107}, {"type": "node", "id": 6593661458, "lat": 43.7432819, "lon": -79.2217297}, {"type": "node", "id": 6630376263, "lat": 43.7403177, "lon": -79.2198267}, {"type": "node", "id": 11916329092, "lat": 43.7404716, "lon": -79.2191141}, {"type": "node", "id": 11916329097, "lat": 43.7414339, "lon": -79.2197432}, {"type": "node", "id": 11916329106, "lat": 43.7409432, "lon": -79.2205716}, {"type": "node", "id": 11916329107, "lat": 43.7403399, "lon": -79.2197241}, {"type": "node", "id": 11916329123, "lat": 43.7402703, "lon": -79.2200434}, {"type": "way", "id": 33541185, "nodes": [382800228, 382800229, 382800230, 382800231, 382800232, 382800233, 382800234, 382800235, 382800228], "tags": {"addr:city": "Scarborough", "addr:housenumber": "78", "addr:postcode": "M1M 3R2", "addr:street": "Mason Road", "amenity": "school", "fax": "+1-416-396-6009", "isced:level": "1", "name": "Mason Road Junior Public School", "operator": "Toronto District School Board", "operator:short": "TDSB", "operator:type": "public", "operator:wikidata": "Q1189302", "operator:wikipedia": "en:Toronto District School Board", "phone": "+1-416-396-6460", "school:language": "english", "source": "Contains public sector Datasets made available under the City of Toronto's Open Data License v2.0.", "website": "https://www.tdsb.on.ca/MOSS/asp_apps/school_landing_page/index.asp?schno=4654"}}, {"type": "way", "id": 35798652, "nodes": [418525189, 418525190, 418525191, 418525192, 418525189], "tags": {"addr:city": "Scarborough", "addr:housenumber": "60", "addr:postcode": "M1M 3B1", "addr:street": "Heathfield Drive", "amenity": "school", "fax": "+1-416-396-5987", "isced:level": "1", "name": "George P Mackie Junior Public School", "operator": "Toronto District School Board", "operator:short": "TDSB", "operator:type": "public", "operator:wikidata": "Q1189302", "operator:wikipedia": "en:Toronto District School Board", "phone": "+1-416-396-6265", "school:language": "english", "source": "Contains public sector Datasets made available under the City of Toronto's Open Data License v2.0.", "website": "https://schoolweb.tdsb.on.ca/georgemackie"}}, {"type": "way", "id": 35798775, "nodes": [418526073, 418526074, 418526075, 2807721323, 418526076, 2807721322, 418526073], "tags": {"addr:city": "Scarborough", "addr:housenumber": "21", "addr:postcode": "M1J 3G4", "addr:street": "Gatesview Avenue", "amenity": "school", "fax": "+1-416-396-3357", "isced:level": "1", "name": "Cedar Drive Junior Public School", "operator": "Toronto District School Board", "operator:short": "TDSB", "operator:type": "public", "operator:wikidata": "Q1189302", "operator:wikipedia": "en:Toronto District School Board", "phone": "+1-416-396-6120", "school:language": "english", "source": "Contains public sector Datasets made available under the City of Toronto's Open Data License v2.0.", "start_date": "1971-09-30", "website": "https://schoolweb.tdsb.on.ca/cedardrive"}}, {"type": "way", "id": 35798787, "nodes": [418526126, 11916329097, 418526127, 11916329106, 418526128, 11916329123, 6630376263, 11916329107, 11916329092, 418526126], "tags": {"addr:city": "Scarborough", "addr:housenumber": "20", "addr:postcode": "M1M 2J1", "addr:street": "Markanna Drive", "amenity": "school", "denomination": "catholic", "fax": "+1-416-393-5487", "isced:level": "1;2", "name": "St. Boniface Catholic School", "operator": "Toronto Catholic District School Board", "operator:short": "TCDSB", "operator:type": "public", "operator:wikidata": "Q405337", "operator:wikipedia": "en:Toronto Catholic District School Board", "phone": "+1-416-393-5277", "religion": "christian", "school:language": "english", "source": "yahoo", "website": "http://stboniface.tcdsb.org"}}, {"type": "way", "id": 224815295, "nodes": [2336691731, 2336691729, 2336691721, 2336691723, 6593661458, 2336691725, 2336691727, 2336691731], "tags": {"addr:city": "Scarborough", "addr:housenumber": "15", "addr:postcode": "M1J 3P2", "addr:street": "Luella Street", "amenity": "school", "fax": "+1-416-396-6717", "isced:level": "1;2", "name": "Scarborough Village Public School", "operator": "Toronto District School Board", "operator:short": "TDSB", "operator:type": "public", "operator:wikidata": "Q1189302", "operator:wikipedia": "en:Toronto District School Board", "phone": "+1-416-396-6560", "school:language": "english", "source": "Contains public sector Datasets made available under the City of Toronto's Open Data License v2.0.", "start_date": "1973-09-04", "website": "https://schoolweb.tdsb.on.ca/svps"}}]}