{"version": 0.6, "generator": "Overpass API 0.7.62.5 1bd436f1", "osm3s": {"timestamp_osm_base": "2025-02-19T00:38:11Z", "copyright": "The data included in this document is from www.openstreetmap.org. The data is made available under ODbL."}, "elements": [{"type": "node", "id": 366319758, "lat": 43.7284509, "lon": -79.4815805}, {"type": "node", "id": 366319766, "lat": 43.7285562, "lon": -79.4810888}, {"type": "node", "id": 366319768, "lat": 43.7283273, "lon": -79.480992}, {"type": "node", "id": 366320000, "lat": 43.7281171, "lon": -79.480907}, {"type": "node", "id": 366320003, "lat": 43.728076, "lon": -79.4808849}, {"type": "node", "id": 366320006, "lat": 43.7279723, "lon": -79.4814099}, {"type": "node", "id": 366320009, "lat": 43.7279755, "lon": -79.4814112}, {"type": "node", "id": 366320011, "lat": 43.7279364, "lon": -79.4815931}, {"type": "node", "id": 366320014, "lat": 43.7283343, "lon": -79.4817569}, {"type": "node", "id": 366320017, "lat": 43.7283787, "lon": -79.4815507}, {"type": "way", "id": 696803995, "nodes": [366320000, 366320003, 366320006, 366320009, 366320011, 366320014, 366320017, 366319758, 366319766, 366319768, 366320000], "tags": {"addr:city": "Toronto", "addr:housenumber": "1090", "addr:postal": "M3K 1G6", "addr:province": "Ontario", "addr:street": "Wilson Avenue", "brand": "Metro", "brand:wikidata": "Q1145669", "brand:wikipedia": "en:Metro Inc.", "building": "retail", "building:colour": "beige", "building:levels": "1", "fax": "+1-416-635-5170", "name": "Metro", "opening_hours": "Mo-Fr 07:00-22:00; Sa, Su 07:00-20:00", "phone": "+1-416-635-0284", "shop": "supermarket", "website": "https://www.metro.ca/en/find-a-grocery/321"}}]}