{"version": 0.6, "generator": "Overpass API 0.7.62.5 1bd436f1", "osm3s": {"timestamp_osm_base": "2025-03-11T10:32:41Z", "copyright": "The data included in this document is from www.openstreetmap.org. The data is made available under ODbL."}, "elements": [{"type": "node", "id": 555317460, "lat": 43.737989, "lon": -79.246373}, {"type": "node", "id": 555317464, "lat": 43.738006, "lon": -79.246134}, {"type": "node", "id": 555317465, "lat": 43.737297, "lon": -79.246892}, {"type": "node", "id": 555317469, "lat": 43.737835, "lon": -79.24711}, {"type": "node", "id": 555317472, "lat": 43.7374, "lon": -79.246408}, {"type": "node", "id": 4951853433, "lat": 43.7404061, "lon": -79.2331517, "tags": {"name": "Shorebazaar Supermarket", "shop": "supermarket"}}, {"type": "node", "id": 6186933050, "lat": 43.738007, "lon": -79.246113}, {"type": "node", "id": 6186944068, "lat": 43.737746, "lon": -79.246231}, {"type": "node", "id": 6186947444, "lat": 43.737749, "lon": -79.246255}, {"type": "way", "id": 43806053, "nodes": [6186933050, 6186944068, 6186947444, 555317472, 555317465, 555317469, 555317460, 555317464, 6186933050], "tags": {"addr:city": "Toronto", "addr:housenumber": "2742", "addr:street": "Eglinton Avenue East", "brand": "No Frills", "brand:wikidata": "Q3342407", "brand:wikipedia": "en:No Frills (grocery store)", "building": "retail", "building:levels": "1", "name": "No Frills", "opendata:type": "115001", "shop": "supermarket"}}]}